title,cate,lat,lng,addr,date
2016 Craft fans精釀生活市集,Food,25.044149899999997,121.52944079999996,台北市中正區八德路一段1號,2016-09-09 10:30~2016-09-11 13:30
【團圓大稻埕 好味食堂】小滿-乾煎鴨胸佐無花果醬,Food,25.058382,121.50970299999994,台北市大同區迪化街一段155號,2016-05-25 03:00~2016-05-25 05:00
【Cally's Flower】母親節花藝工作坊,Food,25.0580285,121.56075450000004,台北市松山區新中街6巷2號1樓,2016-04-29 06:00~2016-05-01 09:00
第九屆亞洲有機樂活產業展 有機樂活美食街 3000個綠行動,Food,25.033259100000002,121.562324,台北市信義路五段五號一樓,2016-11-25 03:00~2016-11-27 06:00
吾糖派 低卡蘋果派烘焙體驗營,Food,25.047276,121.53365800000006,台北市松江路25巷5號1樓,2016-01-24 06:00~2016-01-27 13:00
人資小週末【聖誕年終聚會】“16”人資“17”點亮小週末,Food,25.0521418,121.50956040000004,海霸王甲天下(台北市大同區長安西路287號),2016-12-18 03:30~2016-12-18 06:30
自己的粽子自己包,Food,25.02979,121.52861499999996,台北市金華街142號,2016-06-05 02:00~2016-06-05 05:00
[不只是品酒] 餐廳酒單分析,Food,25.040830800000002,121.55056549999996,台北市忠孝東路4段170巷6弄2號3樓,2016-06-18 05:00~2016-09-30 14:00
| 團圓大稻埕 好味食堂 | 處暑．消暑氣的冰淇淋與下酒菜料理,Food,25.058382,121.50970299999994,台北市迪化街一段155號,2016-08-13 03:00~2016-08-13 04:30
| 團圓大稻埕 好味食堂 |立秋 ‧ 七夕有愛的熱情團圓三明治,Food,25.058382,121.50970299999994,台北市迪化街一段155號,2016-08-06 02:30~2016-08-06 04:00
不要再讓屈原失望了！包粽聯誼 by Tea with Bestie,Food,25.042480100000002,121.56494539999994,台北市信義區基隆路一段 178 號 6 F,2016-04-23 06:00~2016-04-23 09:00
【台灣水果地圖】－鳳梨的一身,Food,25.02979,121.52861499999996,台北市中正區金華街142號,2016-05-21 06:00~2016-05-21 09:00
【臺大創創中心x交點】自食其力，創業家的四個抉擇,Food,25.013696399999997,121.52972079999996,台北市中正區思源路18號,2016-09-30 11:00~2016-09-30 13:30
【廚房美味關係】下班後，不再一個人吃飯！,Food,25.020609,121.52770899999996,桂冠窩廚房 (台北市中正區羅斯福路三段126號),2016-05-07 06:00~2016-05-07 10:00
掌生穀粒│12月秘蜜花園品蜜會 - 聖誕特別版,Food,25.044545,121.56145740000001,台北市信義區菸廠路88號3樓,2016-12-18 06:00~2016-12-18 10:00
2016布根地之夜‧La Paulée de Taipei,Food,25.032963600000002,121.56542680000008,台北亞都麗緻大飯店 宴會廳,2016-11-18 10:30~2016-11-18 14:00
| 團圓大稻埕 好味食堂 |夏至 ‧ 微醺臺北特調 Sangria香料紅酒,Food,25.058382,121.50970299999994,台北市大同區迪化街一段155號,2016-06-18 03:00~2016-06-18 04:00
正宗日本酒開喝！《初訪林森北》系列活動,Food,25.0501908,121.5254324,台北市林森北路107巷10號2樓,2016-07-10 08:00~2016-07-10 10:00
大人的釀酒學：啟動微醺開關術（午後）,Food,25.0371108,121.55912430000001,台北市信義區仁愛路四段452巷6號1樓,2016-08-24 06:30~2016-08-24 08:00
【Simple Sofa分享會系列】第十二場 獨立小店的創業精神:拾米屋甜點咖啡X 55街精釀啤酒  小店精神X手作職人X創業旅程,Food,25.051219600000003,121.54765959999996,台北市南京東路三段338巷3號,2016-04-16 11:00~2016-04-16 13:00
Special K暖男派對-法比歐徵求廚房”貼身小幫手”熱烈報名中,Food,25.0421753,121.55249060000006,Dazzling Café  Pink店 (地址: 大安區忠孝東路四段205巷7弄11號),2016-05-18 04:00~2016-05-27 04:00
Baby kitchen-三創週年慶 感恩烘焙課程,Food,25.0454815,121.53112729999998,台北市中山區市民大道三段2號7f 咖啡芭蕾,2016-05-07 03:15~2016-06-19 04:30
百年工藝的傳承 - 吟釀清酒與美味共舞,Food,25.041342,121.56612700000004,台北市信義區忠孝東路五段37號12樓（門鈴請按#3712）,2016-04-16 05:30~2016-04-16 08:00
MUZIK仲夏藍色夢│蓋西文的微醺夏日時光,Food,25.0341117,121.53495840000004,台北市大安區新生南路一段165巷20號1樓,2016-08-07 16:00~2016-09-24 08:30
臺北市傳統市場節DIY活動,Food,25.070327600000002,121.52175390000002,104台北市中山區玉門街1號,2016-05-14 06:00~2016-05-15 08:40
【新市集經濟學】旅英時尚設計師走跳英國市集：讓台灣美食飄香國際,Food,25.025312399999997,121.54410899999992,台北市大安區和平東路二段265巷3號（Impact Hub）,2016-04-07 11:00~2016-04-07 13:00
『2016 台灣紫牛之星』前進矽谷、放眼世界 Kickoff BBQ Party,Food,25.045671399999996,121.52581229999998,台北市台北市北平東路30-2號4F,2016-08-12 10:00~2016-08-12 13:00
大人的釀酒學：自選水果釀酒術(七月週末加開場）,Food,25.0371108,121.55912430000001,臺北市信義區仁愛路四段452巷6號1樓,2016-07-16 02:00~2016-07-16 04:00
【WOWMAN 女勢系列活動】女嗜-Wowman Tea Time,Food,25.044545,121.56145740000001,台北市菸廠路88號,2016-04-23 07:00~2016-04-23 09:00
[親子烘焙]-2017新春烘焙小達人,Food,25.0454815,121.53112729999998,台北市市民大道三段2號7樓,2016-12-07 07:00~2017-03-26 09:30
四蔬五莖 美食X攝影 蔬食料理分享會,Food,25.027955,121.56821599999999,台北市信義區松仁路178號2樓,2016-07-11 05:00~2016-07-11 08:00
士林官邸嘉年華野餐派對因氣候因素順延至2月13日,Food,25.094898,121.53015200000004,台北市士林區福林路60號,2016-01-15 16:00~2016-02-13 09:00
坐夥PopUp餐館：鮭魚布林餅＆酸橙啤酒！,Food,25.026631,121.55676700000004,台北市信義區嘉興街179-28號1樓,2016-03-29 11:30~2016-03-29 14:00
大哥教你做下酒菜,Food,25.02979,121.52861499999996,台北市大安區金華街142號 (前行政院長官邸，社企聚落),2016-09-24 09:00~2016-09-24 12:30
【已延期】Motif Space 【自遊實驗室】迎接夏日的一杯(冰咖啡系列),Food,25.026102899999998,121.55024600000002,台北市大安區安和路二段211號3樓,2016-05-17 11:15~2016-05-17 13:15
【愛情學派】三種滋味派X關係心理學,Food,25.020609,121.52770899999996,桂冠窩廚房（台北市中正區羅斯福路三段126號之2）,2016-01-21 11:00~2016-01-21 13:30
【吃補冬，臉紅紅】熱紅酒新朋友之夜,Food,25.020609,121.52770899999996,桂冠窩廚房（台北市中正區羅斯福路三段126號之）,2016-01-08 11:00~2016-01-08 13:00
Let's make chocolate 一起做巧克力,Food,25.0539189,121.52179849999992,台北市中山北路2段26巷10之1號2F,2016-05-14 11:00~2016-05-14 13:00
Prosecco 午後微醺的氣泡酒時光,Food,25.020429,121.5311729,106台北市大安區羅斯福路三段269巷58號,2016-01-24 05:30~2016-01-24 08:00
從咖哩品嘗印度 Flavors of India,Food,25.0277993,121.52233750000003,台北市羅斯福路二段49號12樓,2016-04-16 11:00~2016-04-16 14:00
"品咖啡活動_""品味+健康""的樂活生活型態_現場品嘗三款精品咖啡",Food,25.0346926,121.542277,台北市大安區信義路三段147巷11弄6-1號,2016-01-04 06:00~2016-01-08 08:00
手工糖霜餅乾DIY---【基礎課】米妮米奇,Food,25.0589717,121.53392770000004,台北市中山區松江路235巷7號,2016-04-14 05:00~2016-04-14 10:00
印度香料的橙黃春天,Food,25.020609,121.52770899999996,台北市中正區羅斯福路三段126號-2,2016-04-17 06:30~2016-04-17 07:30
【WOWMAN 女勢系列活動】女嗜-輕巧好食光,Food,25.044545,121.56145740000001,台北市信義區菸廠路88號,2016-04-13 02:00~2016-05-15 14:00
大人的釀酒學：自選水果釀酒術(七月平日加開場）,Food,25.0371108,121.55912430000001,臺北市信義區仁愛路四段452巷6號1樓,2016-07-13 06:00~2016-07-13 08:00
餐廳隨意拍，分享聚人潮！_餐廳小聚 in 台北,Food,25.040238600000002,121.5479712,台北市大安區敦化南路一段238巷1號,2016-02-23 06:00~2016-02-23 08:00
【呷月餅，做公益】中秋禮盒開放訂購~一起做公益，讓愛更圓滿！,Food,25.0678342,121.52468950000002,台北市中山區雙城街49巷6-1號,2016-08-02 16:00~2016-09-12 10:00
【Brew Master】咖啡手沖大師之路,Food,25.0496432,121.58096079999996,台北市南港區市民大道七段7號B1,2016-06-19 01:30~2016-06-19 09:00
e5wfr,Food,25.030009,121.53584780000006,大安森林公園,2016-04-13 05:00~2016-04-14 04:00
【義猶未盡Toscana品酒會】,Food,25.038318695986977,121.55515527976229,台北市仁愛路四段383號B1,2016-08-03 11:30~2016-08-03 13:30
坤漳伯60年經驗分享-2016夏季新米發表會,Food,25.0625217,121.50931719999994,台北市大同區迪化街一段329號,2016-08-21 06:00~2016-08-21 08:00
嚐西班牙TAPAS釋放日本酒魂晚宴~SAKE PLUS TAPAS FINE DINNER,Food,25.0797787,121.56738719999998,台市內湖區瑞光路548號1樓,2016-08-26 11:00~2016-08-26 13:00
手工糖霜餅乾DIY---【基礎課】宇宙人Craftholic,Food,25.0589717,121.53392770000004,台北市中山區松江路235巷7號,2016-04-12 05:00~2016-04-12 10:00
小小料理總舖師,Food,25.020609,121.52770899999996,台北市中正區羅斯福路三段126號-2,2016-07-24 02:30~2016-07-24 04:30
【節目酒款訂購】 - 義大利「可可喬拉白酒」&amp;「貝隆納白酒」,Food,25.028666100000002,121.55716770000004,台北市信義區基隆路二段115號,2016-08-04 13:30~2016-08-10 04:00
交友Ｘ吃飯－讓生活添加色彩,Food,25.029802899999996,121.52339600000003,台北市大安區杭州南路二段7-1號,2016-08-19 11:30~2016-08-19 13:30
【大港任意門】2016台北國際春季旅展—高雄市政府農業局,Food,25.033259100000002,121.562324,台北市信義區信義路五段5號,2016-03-25 02:00~2016-03-28 10:00
春遊中正紀念堂,Food,25.0346522,121.52182649999996,台北市中山南路21號,2016-03-29 06:00~2016-04-05 09:00
手工糖霜餅乾DIY---【進階課】白色之戀,Food,25.0589717,121.53392770000004,台北市中山區松江路235巷7號,2016-01-21 02:00~2016-01-21 07:00
手作甜點的幸福滋味,Food,25.044930899999997,121.518194,台北市青島西路七號(捷運台北車站M8出口),2016-11-19 01:30~2016-12-10 04:00
☆ HeartCore x Do good ☆ 彩繪餅乾-藍色小紳士收涎組合,Food,25.043165,121.56333399999994,台北市信義區忠孝東路四段553巷22弄6-1號,2016-11-27 05:30~2016-11-27 09:30
一杯飲料，交換一個故事,Food,25.044149899999997,121.52944079999996,台北市中正區八德路一段1號,2016-11-26 06:00~2016-11-26 08:30
9/2自然餐酒會【自然食x有機酒】,Food,25.0573555,121.5637656,台北市松山區三民路102巷2號,2016-09-02 10:30~2016-09-02 14:00
掌生穀粒│9月秘蜜花園品蜜會,Food,25.044545,121.56145740000001,台北市信義區菸廠路88號3樓,2016-09-20 11:00~2016-09-20 12:30
一杯飲料，交換一個故事,Food,25.044149899999997,121.52944079999996,台北市中正區八德路一段1號,2016-12-31 06:00~2016-12-31 09:00
手工糖霜餅乾DIY---【基礎課】婚禮小物,Food,25.0589717,121.53392770000004,台北市中山區松江路235巷7號,2016-01-16 05:00~2016-01-16 10:00
【Assaporando 慢義酒館】正宗法式甜點 vs. 北義精釀啤酒品嚐會,Food,25.034460199999998,121.55669090000004,台北市大安區延吉街259號,2016-09-04 07:00~2016-09-04 09:00
交友Ｘ吃飯－讓生活添加色彩,Food,25.029802899999996,121.52339600000003,台北市大安區杭州南路二段7-1號,2016-08-20 04:00~2016-08-20 06:30
N9N9創客商務交流會,Food,25.0618359,121.53153769999994,台北市松江路362巷42-2號或台北市民權東路92巷1弄1號對面,2016-03-30 03:00~2016-03-30 05:00
「Coffee and Tea」專業職人咖啡講座(上),Food,25.020609,121.52770899999996,台北市中正區羅斯福路三段126號-2,2016-04-09 06:00~2016-04-09 08:00
藍帶主廚的私房料理-鳳梨篇,Food,25.057641,121.56633399999998,台北市松山區新東街12巷2號,2016-08-10 03:00~2016-08-10 05:30
深夜食堂- 日式炒麵,Food,25.020609,121.52770899999996,台北市中正區羅斯福路三段126號-2,2016-06-15 11:00~2016-06-15 12:00
￭￭《Assaporando慢義酒館》義大利國慶同樂月￭￭,Food,25.034460199999998,121.55669090000004,台北市大安區延吉街259號,2016-05-19 06:00~2016-06-19 15:45
品味稻埕─霧峰、竹崎2016夏季新米發表會,Food,25.0625217,121.50931719999994,台北市大同區迪化街一段329號,2016-07-30 07:00~2016-07-30 09:00
「Coffee and Tea」專業職人咖啡講座－虹吸&amp;手沖,Food,25.020609,121.52770899999996,台北市中正區羅斯福路三段126號-2,2016-07-19 06:00~2016-07-19 08:00
『好味食堂』上班族快速營養午餐,Food,25.058382,121.50970299999994,台北市大同區迪化街155號,2016-03-05 03:00~2016-03-05 04:00
《只喝義大利》拿坡里也有明星級紅酒--Campania品酒會,Food,25.034460199999998,121.55669090000004,台北市大安區延吉街259號,2016-08-07 07:00~2016-08-07 09:00
布魯家的開心廚房「好想幫你帶便當之寶貝上菜囉！」(上),Food,25.020609,121.52770899999996,台北市中正區羅斯福路三段126號-2,2016-07-24 06:00~2016-07-24 08:00
11/4五感x旅行【台灣茶的美好旅程】~請至官網報名!,Food,25.0766163,121.57124739999996,台北市內湖區堤頂大道二段99號,2016-11-04 11:00~2016-11-04 13:00
Julian墨西哥廚房：塔可餅莎莎醬（西文活動）,Food,25.026631,121.55676700000004,台北市信義區嘉興街179-28號,2016-03-06 03:00~2016-03-06 05:00
【咖啡體驗】我就要你好好的．手沖咖啡,Food,25.0416146,121.55578929999999,台北市忠孝東路四段311號5樓之5,2016-08-20 06:30~2016-08-20 09:00
☆慢義輕講座☆ 沒有義大利菜這回事？深入介紹義大利飲食 北義篇,Food,25.034460199999998,121.55669090000004,台北市大安區延吉街259號,2016-03-09 11:00~2016-03-09 12:30
一分鐘健康私廚講座之增肌減脂的實作料理講堂,Food,25.026965399999998,121.53989240000001,台北市大安區瑞安街131號,2016-07-24 06:00~2016-07-24 07:30
大人的午茶學：茶文化美學,Food,25.0371108,121.55912430000001,台北市信義區仁愛路四段452巷6號1樓,2016-06-25 06:00~2016-06-25 08:00
掌生穀粒│7月秘蜜花園品蜜會,Food,25.044545,121.56145740000001,台北市信義區菸廠路88號3樓,2016-07-20 11:00~2016-07-20 12:30
糖霜餅乾【初階】主題任選,Food,25.0589717,121.53392770000004,台北市中山區松江路235巷7號,2016-09-21 05:00~2016-09-21 10:00
『漫慢小農市集』紀州庵文學森林,Food,25.021649399999998,121.52042050000001,台北市中正區同安街107號,2016-07-30 03:00~2016-07-30 10:00
麻吉食光機－旅途中的美味時光,Food,25.070327600000002,121.52175390000002,玉門街一號,2016-12-31 16:00~2017-02-28 15:00
食物課×duo×自炊食代【玻璃罐裡的秋天便當】和式飽食篇,Food,25.0222695,121.53043760000004,台灣台北市大安區泰順街60巷10號7樓,2016-10-29 06:00~2016-10-29 08:00
Chiara義式小廚房：義式Pizza,Food,25.053795,121.51940900000001,台北市赤峰街17巷2號,2016-02-19 11:00~2016-02-19 13:00
Rails Girls Taipei #7 After Party,Food,25.0528967,121.52229229999999,104台北市中山區中山北路二段26巷10-1號號 2F,2016-08-27 10:30~2016-08-27 13:30
11/1 經典牛軋糖,Food,25.0815264,121.55268170000001,台北市中山區敬業一路128巷51號2樓,2016-11-01 02:00~2016-11-01 04:30
(年菜)金豐盛新年聚寶餐桌,Food,25.020609,121.52770899999996,台北市中正區羅斯福路三段126號-2,2016-01-27 11:00~2016-01-27 12:00
(年菜)金豐盛新春山珍海味,Food,25.020609,121.52770899999996,台北市中正區羅斯福路三段126號-2,2016-01-22 07:00~2016-01-22 08:00
沙發下酒小點,Food,25.020609,121.52770899999996,台北市中正區羅斯福路三段126號-2,2016-11-22 06:00~2016-11-22 07:00
12/5輕乳酪蛋糕,Food,25.0815264,121.55268170000001,台北市中山區敬業一路128巷51號2樓,2016-12-05 01:45~2016-12-05 04:30
夏日體態改造計畫,Food,25.047677,121.549351,台北市松山區敦化南路一段1號6樓B座,2016-03-18 06:00~2016-03-18 09:00
兵庫之夜，邂逅日本酒的韻味,Food,25.0631437,121.53295430000004,台北市中山區松江路374號2樓,2016-07-22 11:00~2016-07-22 14:00
岩說精緻鍋物好康報,Food,25.051597,121.56554299999992,台北市松山區南京東路五段267號,2016-08-03 16:00~2016-08-08 12:00
南島鮮果歡樂之舞,Food,25.020609,121.52770899999996,台北市中正區羅斯福路三段126號-2,2016-06-18 03:00~2016-06-18 04:00
手工糖霜餅乾DIY---【主題課】米妮米奇,Food,25.0589717,121.53392770000004,台北市中山區松江路235巷7號,2016-01-30 05:00~2016-01-30 10:00
11/27基礎:心型/圓形馬卡龍,Food,25.0815264,121.55268170000001,台北市中山區敬業一路128巷51號2樓,2016-11-27 06:00~2016-11-27 09:00
11/23經典閃電泡芙,Food,25.083401798689604,121.5540335333435,台北市中山區敬業一路128巷51號2樓,2016-11-22 06:00~2016-11-23 09:00
